{
  "stores": [
    {
      "id": 1,
      "name": "Park Row at Beekman St",
      "address": "38 Park Row",
      "city": "New York",
      "openingHours": "10:00 - 14:00 and 17:00 - 20:30"
    },
    {
      "id": 2,
      "name": "Store Alcalá",
      "address": "Calle de Alcalá, 21",
      "city": "Madrid",
      "openingHours": "10:00 - 14:00 and 17:00 - 20:30"
    },
    {
      "id": 3,
      "name": "Chambers and West Broadway",
      "address": "125 Chambers Street",
      "city": "New York",
      "openingHours": "10:00 - 14:00 and 17:00 - 20:30"
    },
    {
      "id": 4,
      "name": "Covent Garden - Russell St",
      "address": "10 Russell Street",
      "city": "London",
      "openingHours": "10:00 - 14:00 and 17:00 - 20:30"
    },
    {
      "id": 5,
      "name": "Monmouth St",
      "address": "11 Monmouth Street",
      "city": "London",
      "openingHours": "10:00 - 14:00 and 17:00 - 20:30"
    }
  ],
  "categories": [
    {
      "id": 1,
      "name": "Books"
    },
    {
      "id": 2,
      "name": "Electronics"
    },
    {
      "id": 3,
      "name": "Computers"
    }
  ],
  "posts": [
    {
      "id": 1,
      "title": "Dios es amor I",
      "description": "Learn the essentials and more of TypeScript, a popular superset of the JavaScript language that adds support for static typing. TypeScript combines the typing features of C# or Java.",
      "url":"https://www.youtube.com/embed/jxf6GVgEgsM",
      "date": "20/05/2022"
    },
    {
      "id": 2,
      "title": "Dios es amor II",
      "url":"https://www.youtube.com/embed/jxf6GVgEgsM",
      "description": "Learn the essentials and more of TypeScript, a popular superset of the JavaScript language that adds support for static typing. TypeScript combines the typing features of C# or Java.",
      "date": "21/05/2022"
    },
    {
      "id": 3,
      "title": "Dios es amor III",
      "url":"https://www.youtube.com/embed/jxf6GVgEgsM",
      "description": "Learn the essentials and more of TypeScript, a popular superset of the JavaScript language that adds support for static typing. TypeScript combines the typing features of C# or Java.",
      "date": "22/05/2022"
    }
  ],
  "orders": [
    {
      "id": 1,
      "name": "Dominicode",
      "date": "01/12/1995",
      "shippingAddress": "Av. de la Granvia de Hospitalet, 115",
      "city": "Barcelona",
      "pickup": true
    }
  ],
  "detailsOrders": [
    {
      "id": 1,
      "orderId": 1,
      "quantity": 10,
      "productName": "Product name"
    }
  ]
}
